image;height;width;type;original_dataset;scenario;airport;runway;time_to_landing;weather;night;time;slant_distance;along_track_distance;height_above_runway;lateral_path_angle;vertical_path_angle;yaw;pitch;roll;watermark_height;x_A;y_A;x_B;y_B;x_C;y_C;x_D;y_D
images/BIRK_01_500_000.jpeg;2648;2448;earth_studio;LARD_train_BIRK_LFST;BIRK_01_500;BIRK;01;;;;2020-08-01 15:22:01;4.15;4.14;1340.09;-1.7;2.93;-8.292996454006046;86.25697870547582;-10.94856108654156;300;1323;1271;1339;1274;1293;1295;1312;1298
images/BIRK_01_500_001.jpeg;2648;2448;earth_studio;LARD_train_BIRK_LFST;BIRK_01_500;BIRK;01;;;;2020-08-01 15:29:01;4.15;4.14;1404.13;0.95;3.07;-7.377409195335378;83.81266021438161;8.595331924936637;300;1423;1082;1407;1085;1442;1111;1423;1114
images/BIRK_01_500_002.jpeg;2648;2448;earth_studio;LARD_train_BIRK_LFST;BIRK_01_500;BIRK;01;;;;2020-08-01 16:28:01;4.14;4.13;1435.94;-0.21;3.15;-12.046123244412795;83.92702332107325;3.9733055211561172;300;1641;1097;1625;1098;1642;1129;1622;1130
images/BIRK_01_500_003.jpeg;2648;2448;earth_studio;LARD_train_BIRK_LFST;BIRK_01_500;BIRK;01;;;;2020-05-01 15:12:01;4.12;4.11;1265.86;1.03;2.79;-5.080228134258173;88.63387035375818;5.457042031842878;300;1332;1376;1315;1378;1350;1403;1330;1405
images/BIRK_01_500_004.jpeg;2648;2448;earth_studio;LARD_train_BIRK_LFST;BIRK_01_500;BIRK;01;;;;2020-05-01 11:10:01;4.11;4.1;1510.05;-0.42;3.34;-13.672316471018668;87.57555409224605;-7.5103399495287295;300;1714;1419;1731;1421;1702;1451;1722;1454
images/BIRK_01_500_005.jpeg;2648;2448;earth_studio;LARD_train_BIRK_LFST;BIRK_01_500;BIRK;01;;;;2020-08-01 10:00:01;4.09;4.08;1538.09;0.88;3.41;1.604618257757986;88.9037102179739;5.901576912414933;300;931;1466;915;1468;949;1499;929;1501
images/BIRK_01_500_006.jpeg;2648;2448;earth_studio;LARD_train_BIRK_LFST;BIRK_01_500;BIRK;01;;;;2020-04-01 16:53:01;4.08;4.06;1288.87;3.35;2.88;0.41216587403211324;89.0466955217776;-5.63905990729935;300;1136;1407;1153;1408;1177;1440;1197;1442
images/BIRK_01_500_007.jpeg;2648;2448;earth_studio;LARD_train_BIRK_LFST;BIRK_01_500;BIRK;01;;;;2020-08-01 14:29:01;4.07;4.07;1309.3;0.21;2.92;-4.835974102944754;82.0832289465896;8.962003832006477;300;1205;1002;1188;1005;1214;1031;1194;1034
images/BIRK_01_500_008.jpeg;2648;2448;earth_studio;LARD_train_BIRK_LFST;BIRK_01_500;BIRK;01;;;;2020-08-01 11:09:01;4.07;4.06;1421.39;-0.1;3.17;-8.542611770303353;86.82240372172073;2.59649453007696;300;1449;1288;1466;1288;1470;1320;1450;1321
images/BIRK_01_500_009.jpeg;2648;2448;earth_studio;LARD_train_BIRK_LFST;BIRK_01_500;BIRK;01;;;;2020-05-01 13:44:01;4.03;4.02;1263.14;-1.77;2.84;-5.929921962479698;87.76598442767498;0.17631717631513974;300;1165;1337;1182;1337;1139;1366;1159;1366
images/BIRK_01_500_010.jpeg;2648;2448;earth_studio;LARD_train_BIRK_LFST;BIRK_01_500;BIRK;01;;;;2020-07-01 16:03:01;4.02;4.01;1301.35;-1.94;2.93;-7.01321429997647;86.11264325243698;-0.37804323771984893;300;1218;1244;1235;1244;1189;1273;1210;1274
images/BIRK_01_500_011.jpeg;2648;2448;earth_studio;LARD_train_BIRK_LFST;BIRK_01_500;BIRK;01;;;;2020-04-01 11:23:01;3.97;3.96;1374.76;1.6;3.14;-5.855558213096508;85.14785880250133;-0.4455170438133779;300;1397;1198;1413;1198;1417;1231;1438;1231
images/BIRK_01_500_012.jpeg;2648;2448;earth_studio;LARD_train_BIRK_LFST;BIRK_01_500;BIRK;01;;;;2020-08-01 10:17:01;3.94;3.94;1333.65;0.71;3.06;-1.7158553564427437;90.57647089334132;-2.912207297433631;300;1078;1508;1095;1509;1085;1541;1105;1542
images/BIRK_01_500_013.jpeg;2648;2448;earth_studio;LARD_train_BIRK_LFST;BIRK_01_500;BIRK;01;;;;2020-08-01 12:20:01;3.9;3.89;1362.02;0.17;3.16;-12.650700519732167;87.92588930136446;0.6590972003949686;300;1720;1358;1702;1359;1703;1392;1724;1392
images/BIRK_01_500_014.jpeg;2648;2448;earth_studio;LARD_train_BIRK_LFST;BIRK_01_500;BIRK;01;;;;2020-08-01 17:30:01;3.89;3.89;1273.2;-0.39;2.96;-7.8893857343817135;86.11653117634705;-6.041809930961985;300;1385;1261;1402;1263;1374;1292;1395;1294
images/BIRK_01_500_015.jpeg;2648;2448;earth_studio;LARD_train_BIRK_LFST;BIRK_01_500;BIRK;01;;;;2020-08-01 15:08:01;3.89;3.88;1210.45;1.58;2.82;-7.5936679766408215;84.083219881309;7.878897767856044;300;1485;1079;1468;1081;1513;1105;1492;1108
images/BIRK_01_500_016.jpeg;2648;2448;earth_studio;LARD_train_BIRK_LFST;BIRK_01_500;BIRK;01;;;;2020-08-01 16:39:01;3.87;3.86;1272.51;1.06;2.98;-0.6833414712594719;85.99924263464938;7.324483532662982;300;1058;1259;1041;1261;1079;1288;1059;1291
images/BIRK_01_500_017.jpeg;2648;2448;earth_studio;LARD_train_BIRK_LFST;BIRK_01_500;BIRK;01;;;;2020-04-01 11:27:01;3.87;3.86;1332.71;2.19;3.12;-2.7565975780078893;86.16987395019292;-3.7462071605863283;300;1258;1258;1275;1259;1285;1293;1306;1294
images/BIRK_01_500_018.jpeg;2648;2448;earth_studio;LARD_train_BIRK_LFST;BIRK_01_500;BIRK;01;;;;2020-05-01 13:13:01;3.87;3.86;1375.66;0.86;3.22;-13.171523823837592;92.02611917110883;-2.722287852358799;300;1771;1638;1788;1639;1780;1673;1802;1674
images/BIRK_01_500_019.jpeg;2648;2448;earth_studio;LARD_train_BIRK_LFST;BIRK_01_500;BIRK;01;;;;2020-07-01 13:37:01;3.86;3.84;1338.74;-3.15;3.15;2.2866546172202344;89.42029988245095;5.532521591137445;300;606;1513;588;1515;564;1551;542;1554
images/BIRK_01_500_020.jpeg;2648;2448;earth_studio;LARD_train_BIRK_LFST;BIRK_01_500;BIRK;01;;;;2020-06-01 10:34:01;3.85;3.85;1268.32;-0.46;2.98;-7.207843469780716;85.58507233006935;-4.1602519979683485;300;1340;1222;1357;1223;1329;1253;1350;1254
images/BIRK_01_500_021.jpeg;2648;2448;earth_studio;LARD_train_BIRK_LFST;BIRK_01_500;BIRK;01;;;;2020-04-01 14:25:01;3.8;3.79;1310.31;-0.26;3.12;-11.54960423609927;85.90599527668368;5.262147250786744;300;1613;1204;1596;1206;1614;1238;1593;1240
images/BIRK_01_500_022.jpeg;2648;2448;earth_studio;LARD_train_BIRK_LFST;BIRK_01_500;BIRK;01;;;;2020-08-01 16:16:01;3.8;3.79;1507.87;-0.89;3.59;-3.9519333129410166;83.44356883309403;-0.7600544521423589;300;1111;1116;1128;1116;1095;1155;1116;1155
images/BIRK_01_500_023.jpeg;2648;2448;earth_studio;LARD_train_BIRK_LFST;BIRK_01_500;BIRK;01;;;;2020-06-01 12:52:01;3.78;3.78;1295.83;-0.15;3.1;0.20130301884140245;87.63656453285412;-6.04268903818165;300;913;1309;930;1311;905;1342;927;1344
images/BIRK_01_500_024.jpeg;2648;2448;earth_studio;LARD_train_BIRK_LFST;BIRK_01_500;BIRK;01;;;;2020-07-01 11:52:01;3.78;3.78;1382.01;-0.03;3.3;-5.362965277839214;86.4204288127267;1.4775271049496257;300;1273;1278;1255;1279;1255;1314;1276;1314
images/BIRK_01_500_025.jpeg;2648;2448;earth_studio;LARD_train_BIRK_LFST;BIRK_01_500;BIRK;01;;;;2020-08-01 10:48:01;3.77;3.76;1295.4;-0.38;3.11;-8.81245333517948;83.88429739326128;-2.7108690369063337;300;1442;1129;1460;1130;1433;1162;1454;1163
images/BIRK_01_500_026.jpeg;2648;2448;earth_studio;LARD_train_BIRK_LFST;BIRK_01_500;BIRK;01;;;;2020-08-01 16:11:01;3.77;3.76;1274.34;0.76;3.06;-7.969474169540934;87.4002139770608;-0.7842145480073509;300;1463;1329;1480;1329;1472;1362;1493;1362
images/BIRK_01_500_027.jpeg;2648;2448;earth_studio;LARD_train_BIRK_LFST;BIRK_01_500;BIRK;01;;;;2020-06-01 11:15:01;3.76;3.75;1091.69;-0.4;2.62;-4.941115901095418;82.2840144594722;-8.080279894817156;300;1247;998;1264;1001;1235;1025;1256;1028
images/BIRK_01_500_028.jpeg;2648;2448;earth_studio;LARD_train_BIRK_LFST;BIRK_01_500;BIRK;01;;;;2020-04-01 10:46:01;3.74;3.73;1251.63;-1.04;3.03;-8.077790064844386;82.19226582506886;2.0002044998746005;300;1332;1009;1349;1009;1337;1042;1315;1043
images/BIRK_01_500_029.jpeg;2648;2448;earth_studio;LARD_train_BIRK_LFST;BIRK_01_500;BIRK;01;;;;2020-05-01 15:55:01;3.72;3.72;1197.83;-0.23;2.91;-5.766776917833005;83.96988086965679;-0.9057408474094725;300;1265;1114;1283;1114;1259;1146;1281;1146
images/BIRK_01_500_030.jpeg;2648;2448;earth_studio;LARD_train_BIRK_LFST;BIRK_01_500;BIRK;01;;;;2020-04-01 10:05:01;3.71;3.7;1154.15;0.51;2.81;-5.389238676147281;86.4223601306158;-2.132590758163704;300;1294;1257;1312;1257;1298;1288;1320;1289
images/BIRK_01_500_031.jpeg;2648;2448;earth_studio;LARD_train_BIRK_LFST;BIRK_01_500;BIRK;01;;;;2020-08-01 15:26:01;3.71;3.7;1213.81;-1.32;2.96;1.096947685377625;82.85829272749979;1.8270925712011543;300;784;1064;766;1065;767;1098;745;1099
images/BIRK_01_500_032.jpeg;2648;2448;earth_studio;LARD_train_BIRK_LFST;BIRK_01_500;BIRK;01;;;;2020-07-01 10:09:01;3.7;3.69;1319.56;1.43;3.22;-10.850837562891684;85.63892230280412;-2.0621023926765805;300;1686;1246;1704;1247;1704;1283;1727;1284
images/BIRK_01_500_033.jpeg;2648;2448;earth_studio;LARD_train_BIRK_LFST;BIRK_01_500;BIRK;01;;;;2020-05-01 17:25:01;3.7;3.69;1301.7;-1.21;3.18;-1.5043284810270836;90.25331445728426;-0.4580173777572111;300;938;1498;956;1499;917;1534;939;1534
images/BIRK_01_500_034.jpeg;2648;2448;earth_studio;LARD_train_BIRK_LFST;BIRK_01_500;BIRK;01;;;;2020-04-01 14:10:01;3.69;3.69;1184.55;-1.62;2.9;-5.948556202230266;86.47699077455184;3.3803275782131035;300;1189;1263;1171;1264;1169;1297;1147;1298
images/BIRK_01_500_035.jpeg;2648;2448;earth_studio;LARD_train_BIRK_LFST;BIRK_01_500;BIRK;01;;;;2020-04-01 12:16:01;3.69;3.69;1224.48;-0.48;2.99;-4.026720860921657;87.84676647126265;0.01575828529150382;300;1141;1348;1159;1348;1132;1381;1154;1381
images/BIRK_01_500_036.jpeg;2648;2448;earth_studio;LARD_train_BIRK_LFST;BIRK_01_500;BIRK;01;;;;2020-05-01 15:47:01;3.69;3.68;1218.82;1.05;2.98;1.7435651246364543;85.59268754803914;0.9695992718669476;300;903;1219;922;1219;918;1252;941;1252
images/BIRK_01_500_037.jpeg;2648;2448;earth_studio;LARD_train_BIRK_LFST;BIRK_01_500;BIRK;01;;;;2020-04-01 12:45:01;3.68;3.68;1200.08;-0.05;2.94;-9.296401721917666;87.02973336172431;5.418626257213095;300;1499;1271;1481;1272;1503;1303;1481;1305
images/BIRK_01_500_038.jpeg;2648;2448;earth_studio;LARD_train_BIRK_LFST;BIRK_01_500;BIRK;01;;;;2020-04-01 15:07:01;3.67;3.67;1226.72;0.91;3.02;-2.4832758726004327;86.80494815200389;13.777511743835385;300;1158;1302;1141;1306;1182;1330;1160;1336
images/BIRK_01_500_039.jpeg;2648;2448;earth_studio;LARD_train_BIRK_LFST;BIRK_01_500;BIRK;01;;;;2020-04-01 12:00:01;3.67;3.67;1235.22;-0.05;3.04;3.534823487343756;85.31397745400407;-7.1386633774655746;300;745;1140;764;1142;740;1174;763;1177
images/BIRK_01_500_040.jpeg;2648;2448;earth_studio;LARD_train_BIRK_LFST;BIRK_01_500;BIRK;01;;;;2020-07-01 17:28:01;3.65;3.64;1262.39;-0.82;3.13;-7.609223231903828;84.71974494273469;-7.742920202114024;300;1349;1184;1367;1187;1330;1217;1352;1220
images/BIRK_01_500_041.jpeg;2648;2448;earth_studio;LARD_train_BIRK_LFST;BIRK_01_500;BIRK;01;;;;2020-06-01 12:27:01;3.63;3.63;1150.93;-0.35;2.86;-6.7464578976792895;84.14450188063569;-6.091220772893888;300;1333;1131;1351;1133;1322;1162;1344;1165
images/BIRK_01_500_042.jpeg;2648;2448;earth_studio;LARD_train_BIRK_LFST;BIRK_01_500;BIRK;01;;;;2020-07-01 14:16:01;3.63;3.62;1279.28;-1.15;3.18;-4.979656449575097;85.08206585124437;-6.87026936572514;300;1166;1185;1184;1187;1142;1218;1164;1221
images/BIRK_01_500_043.jpeg;2648;2448;earth_studio;LARD_train_BIRK_LFST;BIRK_01_500;BIRK;01;;;;2020-08-01 12:14:01;3.6;3.59;1271.32;-0.64;3.19;1.1898010405583106;89.50590704513687;3.5730709742041746;300;845;1480;827;1482;840;1517;817;1519
images/BIRK_01_500_044.jpeg;2648;2448;earth_studio;LARD_train_BIRK_LFST;BIRK_01_500;BIRK;01;;;;2020-05-01 10:54:01;3.59;3.58;1183.95;-2.1;2.98;-8.01907300509336;83.85288447984107;-4.613245289575945;300;1280;1113;1299;1114;1242;1143;1265;1145
images/BIRK_01_500_045.jpeg;2648;2448;earth_studio;LARD_train_BIRK_LFST;BIRK_01_500;BIRK;01;;;;2020-08-01 10:51:01;3.58;3.57;1247.21;0.66;3.14;-7.6807826997035376;88.57962686015766;-5.754816558303081;300;1430;1420;1448;1421;1434;1456;1457;1458
images/BIRK_01_500_046.jpeg;2648;2448;earth_studio;LARD_train_BIRK_LFST;BIRK_01_500;BIRK;01;;;;2020-05-01 10:33:01;3.57;3.56;1331.82;-1.31;3.36;-6.5450429861356065;84.851675113108;-0.9889315401763009;300;1234;1188;1252;1188;1210;1226;1233;1226
images/BIRK_01_500_047.jpeg;2648;2448;earth_studio;LARD_train_BIRK_LFST;BIRK_01_500;BIRK;01;;;;2020-05-01 12:37:01;3.56;3.54;1118.33;-4.36;2.85;-3.5727548251096817;88.21578096391285;4.712166265592373;300;861;1391;843;1393;796;1430;773;1432
images/BIRK_01_500_048.jpeg;2648;2448;earth_studio;LARD_train_BIRK_LFST;BIRK_01_500;BIRK;01;;;;2020-06-01 15:52:01;3.55;3.54;1217.23;1.65;3.09;-8.590665693064762;86.39898093076616;15.063838004301793;300;1554;1176;1536;1180;1591;1203;1569;1208
images/BIRK_01_500_049.jpeg;2648;2448;earth_studio;LARD_train_BIRK_LFST;BIRK_01_500;BIRK;01;;;;2020-04-01 17:27:01;3.54;3.53;1140.77;1.19;2.91;0.5718008252190732;85.45652012330757;-0.9429017344469459;300;988;1197;1006;1197;1004;1230;1027;1231
images/BIRK_01_500_050.jpeg;2648;2448;earth_studio;LARD_train_BIRK_LFST;BIRK_01_500;BIRK;01;;;;2020-06-01 15:39:01;3.52;3.5;1228.27;3.97;3.16;-3.3437769783249456;84.82890622785533;-1.6210351484908412;300;1419;1181;1438;1181;1480;1219;1503;1219
images/BIRK_01_500_051.jpeg;2648;2448;earth_studio;LARD_train_BIRK_LFST;BIRK_01_500;BIRK;01;;;;2020-06-01 12:15:01;3.52;3.51;1133.31;1.66;2.91;0.22388776086363738;85.44391499714796;-6.523319098532555;300;1055;1179;1074;1181;1076;1215;1099;1218
images/BIRK_01_500_052.jpeg;2648;2448;earth_studio;LARD_train_BIRK_LFST;BIRK_01_500;BIRK;01;;;;2020-07-01 13:22:01;3.52;3.51;1111.94;0.15;2.85;5.425985537316857;86.18375765030761;-1.7144677448482628;300;621;1225;640;1225;620;1258;644;1259
images/BIRK_01_500_053.jpeg;2648;2448;earth_studio;LARD_train_BIRK_LFST;BIRK_01_500;BIRK;01;;;;2020-05-01 13:55:01;3.51;3.51;1130.08;1.08;2.9;-2.5895210562862223;92.3871268434545;-13.070048413451445;300;1102;1591;1120;1596;1109;1628;1132;1633
images/BIRK_01_500_054.jpeg;2648;2448;earth_studio;LARD_train_BIRK_LFST;BIRK_01_500;BIRK;01;;;;2020-05-01 14:35:01;3.51;3.5;1330.88;0.92;3.42;-4.700847433651287;82.39086623257182;-0.3376621850651036;300;1281;1044;1300;1044;1294;1084;1317;1084
images/BIRK_01_500_055.jpeg;2648;2448;earth_studio;LARD_train_BIRK_LFST;BIRK_01_500;BIRK;01;;;;2020-06-01 14:44:01;3.5;3.49;1004.28;-1.94;2.59;-7.022268866727101;85.72379082835138;0.18822763682796967;300;1215;1200;1233;1200;1181;1230;1204;1230
images/BIRK_01_500_056.jpeg;2648;2448;earth_studio;LARD_train_BIRK_LFST;BIRK_01_500;BIRK;01;;;;2020-04-01 17:43:01;3.49;3.49;1202.06;-0.31;3.1;-4.6176965858338965;87.82996219223172;1.9195713114508002;300;1207;1351;1188;1352;1206;1387;1182;1388
images/BIRK_01_500_057.jpeg;2648;2448;earth_studio;LARD_train_BIRK_LFST;BIRK_01_500;BIRK;01;;;;2020-05-01 17:12:01;3.49;3.48;1210.77;-1.1;3.13;-0.1783150834543541;88.46680552488498;0.06374496469884017;300;867;1391;886;1391;847;1428;870;1428
images/BIRK_01_500_058.jpeg;2648;2448;earth_studio;LARD_train_BIRK_LFST;BIRK_01_500;BIRK;01;;;;2020-04-01 10:34:01;3.48;3.47;1294.82;-1.76;3.35;-3.6012550186657126;88.85002645603443;5.070471416001462;300;1053;1440;1034;1441;1030;1481;1007;1483
images/BIRK_01_500_059.jpeg;2648;2448;earth_studio;LARD_train_BIRK_LFST;BIRK_01_500;BIRK;01;;;;2020-05-01 17:07:01;3.44;3.44;1114.94;0.57;2.92;1.9009462243929063;87.382845697615;7.59260301250269;300;883;1361;864;1363;899;1393;876;1396
images/BIRK_01_500_060.jpeg;2648;2448;earth_studio;LARD_train_BIRK_LFST;BIRK_01_500;BIRK;01;;;;2020-06-01 14:33:01;3.43;3.42;1159.07;-0.05;3.04;-7.0347400850221735;84.65457543537202;1.3022816872693619;300;1353;1156;1372;1156;1376;1191;1352;1192
images/BIRK_01_500_061.jpeg;2648;2448;earth_studio;LARD_train_BIRK_LFST;BIRK_01_500;BIRK;01;;;;2020-08-01 17:20:01;3.41;3.4;1138.93;1.53;3.01;-5.107293691963372;86.97259576236513;2.8674524566211863;300;1364;1287;1345;1288;1394;1322;1370;1323
images/BIRK_01_500_062.jpeg;2648;2448;earth_studio;LARD_train_BIRK_LFST;BIRK_01_500;BIRK;01;;;;2020-07-01 14:05:01;3.41;3.4;1119.55;1.25;2.96;-11.18343728252593;87.35921685424306;5.589046274034001;300;1707;1269;1688;1271;1734;1302;1710;1304
images/BIRK_01_500_063.jpeg;2648;2448;earth_studio;LARD_train_BIRK_LFST;BIRK_01_500;BIRK;01;;;;2020-07-01 16:00:01;3.4;3.39;1052.63;-0.06;2.79;-5.965685954990718;86.44800726680158;0.3924942072358151;300;1284;1252;1304;1252;1281;1285;1305;1285
images/BIRK_01_500_064.jpeg;2648;2448;earth_studio;LARD_train_BIRK_LFST;BIRK_01_500;BIRK;01;;;;2020-04-01 10:35:01;3.39;3.38;1089.39;0.14;2.89;-3.4792221042007947;88.29825812454955;3.6627956906833252;300;1174;1371;1154;1372;1181;1405;1157;1406
images/BIRK_01_500_065.jpeg;2648;2448;earth_studio;LARD_train_BIRK_LFST;BIRK_01_500;BIRK;01;;;;2020-05-01 17:50:01;3.38;3.37;1195.67;-0.51;3.19;-5.117633523614077;87.57366785884824;-3.4284009271207427;300;1202;1338;1221;1339;1188;1375;1212;1376
images/BIRK_01_500_066.jpeg;2648;2448;earth_studio;LARD_train_BIRK_LFST;BIRK_01_500;BIRK;01;;;;2020-08-01 15:39:01;3.36;3.36;1181.83;-0.0;3.16;-0.4773158974388716;88.67226980110905;5.2015180854605925;300;991;1425;972;1427;997;1462;973;1465
images/BIRK_01_500_067.jpeg;2648;2448;earth_studio;LARD_train_BIRK_LFST;BIRK_01_500;BIRK;01;;;;2020-05-01 11:46:01;3.36;3.35;1217.58;-1.77;3.26;-9.103642446380203;89.95481877667973;2.3973561636938907;300;1375;1478;1356;1479;1349;1518;1325;1519
images/BIRK_01_500_068.jpeg;2648;2448;earth_studio;LARD_train_BIRK_LFST;BIRK_01_500;BIRK;01;;;;2020-05-01 15:15:01;3.34;3.34;1111.17;0.6;2.99;-2.2384117133177406;87.09862589270622;-4.438608635292284;300;1113;1292;1132;1293;1118;1328;1142;1330
images/BIRK_01_500_069.jpeg;2648;2448;earth_studio;LARD_train_BIRK_LFST;BIRK_01_500;BIRK;01;;;;2020-07-01 15:06:01;3.32;3.32;1155.86;-0.46;3.13;-2.94216431631546;84.29336263191803;-0.5494980458837738;300;1078;1139;1098;1140;1068;1177;1092;1177
images/BIRK_01_500_070.jpeg;2648;2448;earth_studio;LARD_train_BIRK_LFST;BIRK_01_500;BIRK;01;;;;2020-06-01 12:53:01;3.31;3.31;1182.32;0.94;3.21;-4.717848987242244;86.86579666683711;5.197549754601816;300;1299;1291;1280;1292;1321;1328;1297;1330
images/BIRK_01_500_071.jpeg;2648;2448;earth_studio;LARD_train_BIRK_LFST;BIRK_01_500;BIRK;01;;;;2020-04-01 13:35:01;3.29;3.29;1093.49;-0.04;2.98;4.305810868366342;85.21839400826708;-1.2910392770301882;300;675;1178;695;1178;672;1215;697;1215
images/BIRK_01_500_072.jpeg;2648;2448;earth_studio;LARD_train_BIRK_LFST;BIRK_01_500;BIRK;01;;;;2020-07-01 16:14:01;3.29;3.28;1006.04;1.98;2.75;-1.9279044993693955;85.2057960400383;2.3617658969659003;300;1204;1176;1185;1177;1243;1208;1218;1210
images/BIRK_01_500_073.jpeg;2648;2448;earth_studio;LARD_train_BIRK_LFST;BIRK_01_500;BIRK;01;;;;2020-08-01 14:46:01;3.29;3.28;1219.82;0.23;3.33;-5.018696355346173;86.6514086164219;2.079434958089114;300;1268;1289;1248;1290;1276;1330;1251;1331
images/BIRK_01_500_074.jpeg;2648;2448;earth_studio;LARD_train_BIRK_LFST;BIRK_01_500;BIRK;01;;;;2020-06-01 16:42:01;3.26;3.25;1100.04;-0.76;3.03;3.8014630219111627;84.58279655255879;1.224796538702866;300;646;1167;666;1167;631;1205;656;1205
images/BIRK_01_500_075.jpeg;2648;2448;earth_studio;LARD_train_BIRK_LFST;BIRK_01_500;BIRK;01;;;;2020-04-01 11:26:01;3.25;3.24;1168.61;-1.09;3.23;-2.874442059103499;86.9526342493586;-8.807902050719642;300;1032;1274;1052;1277;1005;1310;1030;1313
images/BIRK_01_500_076.jpeg;2648;2448;earth_studio;LARD_train_BIRK_LFST;BIRK_01_500;BIRK;01;;;;2020-07-01 15:48:01;3.24;3.23;1032.4;-1.11;2.86;4.4277097171451825;86.61177217716973;-0.2346960148682373;300;586;1264;606;1264;563;1300;589;1300
images/BIRK_01_500_077.jpeg;2648;2448;earth_studio;LARD_train_BIRK_LFST;BIRK_01_500;BIRK;01;;;;2020-04-01 13:21:01;3.22;3.22;977.93;-0.27;2.72;-14.24655857543985;87.79086121914847;-7.525414026420431;300;1760;1400;1780;1403;1748;1433;1773;1436
images/BIRK_01_500_078.jpeg;2648;2448;earth_studio;LARD_train_BIRK_LFST;BIRK_01_500;BIRK;01;;;;2020-04-01 16:07:01;3.2;3.2;1012.44;0.29;2.84;-10.430183869979759;88.18383170003428;2.2743007855757646;300;1597;1342;1577;1343;1606;1378;1581;1379
images/BIRK_01_500_079.jpeg;2648;2448;earth_studio;LARD_train_BIRK_LFST;BIRK_01_500;BIRK;01;;;;2020-08-01 12:55:01;3.19;3.18;1052.57;0.83;2.96;-7.433582778625949;85.58057334850282;-5.824176201815618;300;1446;1230;1466;1232;1454;1269;1480;1271
images/BIRK_01_500_080.jpeg;2648;2448;earth_studio;LARD_train_BIRK_LFST;BIRK_01_500;BIRK;01;;;;2020-08-01 14:06:01;3.19;3.18;1083.64;-0.79;3.05;0.16529702893427345;83.08357177338385;-9.088174804844295;300;911;1011;931;1014;889;1047;914;1051
images/BIRK_01_500_081.jpeg;2648;2448;earth_studio;LARD_train_BIRK_LFST;BIRK_01_500;BIRK;01;;;;2020-05-01 17:13:01;3.17;3.16;1116.35;-2.1;3.16;-3.8176406048485423;84.34845137656103;8.037420344444863;300;1007;1173;987;1176;978;1218;952;1221
images/BIRK_01_500_082.jpeg;2648;2448;earth_studio;LARD_train_BIRK_LFST;BIRK_01_500;BIRK;01;;;;2020-06-01 14:37:01;3.17;3.16;1029.44;-0.78;2.91;-7.2022897810044;85.90966389947184;-7.599807883501361;300;1318;1237;1338;1239;1296;1271;1322;1274
images/BIRK_01_500_083.jpeg;2648;2448;earth_studio;LARD_train_BIRK_LFST;BIRK_01_500;BIRK;01;;;;2020-07-01 13:50:01;3.16;3.16;1123.83;0.55;3.19;-5.178596583827531;88.34305193139095;12.814578315651072;300;1313;1364;1293;1368;1335;1400;1310;1406
images/BIRK_01_500_084.jpeg;2648;2448;earth_studio;LARD_train_BIRK_LFST;BIRK_01_500;BIRK;01;;;;2020-07-01 11:40:01;3.15;3.14;1125.11;1.2;3.21;-0.13161138093218394;85.9721316851569;6.523527917940877;300;1041;1263;1020;1266;1070;1301;1044;1304
images/BIRK_01_500_085.jpeg;2648;2448;earth_studio;LARD_train_BIRK_LFST;BIRK_01_500;BIRK;01;;;;2020-07-01 10:39:01;3.11;3.11;1020.57;-0.23;2.94;-7.735400331158772;87.75828503662432;-1.679699555002283;300;1377;1340;1397;1341;1369;1377;1395;1378
images/BIRK_01_500_086.jpeg;2648;2448;earth_studio;LARD_train_BIRK_LFST;BIRK_01_500;BIRK;01;;;;2020-04-01 15:52:01;3.11;3.11;1122.8;-0.89;3.23;-1.4780119971358827;85.79538538238235;0.5792679699229522;300;977;1236;957;1237;938;1278;964;1278
images/BIRK_01_500_087.jpeg;2648;2448;earth_studio;LARD_train_BIRK_LFST;BIRK_01_500;BIRK;01;;;;2020-05-01 13:53:01;3.11;3.1;1155.13;-0.05;3.33;-8.056576568257347;86.32684489953228;0.5663592145215828;300;1409;1268;1429;1268;1405;1311;1432;1311
images/BIRK_01_500_088.jpeg;2648;2448;earth_studio;LARD_train_BIRK_LFST;BIRK_01_500;BIRK;01;;;;2020-05-01 11:05:01;3.1;3.09;1106.48;-2.14;3.21;-6.587560841052184;87.7112869153216;6.772115489477821;300;1195;1349;1174;1352;1163;1394;1137;1397
images/BIRK_01_500_089.jpeg;2648;2448;earth_studio;LARD_train_BIRK_LFST;BIRK_01_500;BIRK;01;;;;2020-07-01 10:19:01;3.07;3.07;937.33;1.18;2.73;-4.796759617350239;81.40815594802702;4.595155338031825;300;1295;939;1274;941;1322;973;1296;975
images/BIRK_01_500_090.jpeg;2648;2448;earth_studio;LARD_train_BIRK_LFST;BIRK_01_500;BIRK;01;;;;2020-06-01 14:33:01;3.07;3.06;1114.93;2.22;3.25;4.147231389225087;87.15303310578572;3.00682955564824;300;868;1334;847;1335;915;1374;889;1375
images/BIRK_01_500_091.jpeg;2648;2448;earth_studio;LARD_train_BIRK_LFST;BIRK_01_500;BIRK;01;;;;2020-05-01 17:17:01;3.06;3.05;1040.14;-1.25;3.05;-10.651356690279268;90.07287879738868;3.257106855978354;300;1506;1462;1485;1464;1487;1503;1460;1505
images/BIRK_01_500_092.jpeg;2648;2448;earth_studio;LARD_train_BIRK_LFST;BIRK_01_500;BIRK;01;;;;2020-04-01 13:52:01;3.05;3.04;1124.67;3.35;3.31;-5.623267120137182;82.78771273365273;2.9930863786957813;300;1518;1042;1497;1043;1587;1082;1560;1083
images/BIRK_01_500_093.jpeg;2648;2448;earth_studio;LARD_train_BIRK_LFST;BIRK_01_500;BIRK;01;;;;2020-07-01 16:52:01;3.05;3.05;1034.98;1.24;3.04;-7.419885702599045;87.83202605791172;-1.1846310378744096;300;1464;1349;1485;1350;1484;1389;1510;1390
images/BIRK_01_500_094.jpeg;2648;2448;earth_studio;LARD_train_BIRK_LFST;BIRK_01_500;BIRK;01;;;;2020-07-01 17:27:01;3.04;3.04;958.65;1.19;2.82;-8.42225024749578;89.4547185839665;0.9391606319744071;300;1522;1425;1543;1425;1543;1462;1570;1462
images/BIRK_01_500_095.jpeg;2648;2448;earth_studio;LARD_train_BIRK_LFST;BIRK_01_500;BIRK;01;;;;2020-08-01 15:46:01;3.03;3.02;1069.36;1.02;3.16;-3.3000771474464723;88.96047732006019;-5.386384906103952;300;1195;1415;1216;1417;1208;1457;1234;1460
images/BIRK_01_500_096.jpeg;2648;2448;earth_studio;LARD_train_BIRK_LFST;BIRK_01_500;BIRK;01;;;;2020-06-01 12:07:01;3.02;3.02;1002.12;0.5;2.97;-5.452871536454689;88.75749983529104;-0.9157745659460927;300;1293;1397;1314;1397;1299;1436;1326;1436
images/BIRK_01_500_097.jpeg;2648;2448;earth_studio;LARD_train_BIRK_LFST;BIRK_01_500;BIRK;01;;;;2020-08-01 14:28:01;3.01;3.01;980.1;-1.41;2.91;-1.7804763023564893;86.55132719715489;4.632337039571751;300;954;1284;933;1285;933;1324;906;1326
images/BIRK_01_500_098.jpeg;2648;2448;earth_studio;LARD_train_BIRK_LFST;BIRK_01_500;BIRK;01;;;;2020-07-01 16:17:01;3.01;3.0;990.71;-0.0;2.95;-0.9795523056350892;88.0428509786117;0.4965736744882187;300;993;1354;1014;1354;990;1393;1017;1393
images/BIRK_01_500_099.jpeg;2648;2448;earth_studio;LARD_train_BIRK_LFST;BIRK_01_500;BIRK;01;;;;2020-06-01 11:33:01;3.01;3.0;1049.39;-0.78;3.12;-5.0332960226183285;85.76165172021047;-0.5877953369890822;300;1178;1225;1199;1225;1159;1266;1186;1266
images/BIRK_01_500_100.jpeg;2648;2448;earth_studio;LARD_train_BIRK_LFST;BIRK_01_500;BIRK;01;;;;2020-07-01 10:53:01;2.99;2.99;978.97;1.0;2.93;-9.575867873866251;85.00754413468547;2.295565533341082;300;1592;1156;1570;1157;1615;1194;1588;1195
images/BIRK_01_500_101.jpeg;2648;2448;earth_studio;LARD_train_BIRK_LFST;BIRK_01_500;BIRK;01;;;;2020-08-01 16:41:01;2.98;2.97;1062.16;0.98;3.19;-10.976917073639315;87.90260686526074;-1.4776823800038097;300;1657;1368;1679;1368;1673;1411;1700;1412
images/BIRK_01_500_102.jpeg;2648;2448;earth_studio;LARD_train_BIRK_LFST;BIRK_01_500;BIRK;01;;;;2020-08-01 16:28:01;2.94;2.92;942.71;-3.36;2.88;-4.712458503184187;87.22452925736373;2.262683413758661;300;990;1308;968;1309;927;1350;900;1351
images/BIRK_01_500_103.jpeg;2648;2448;earth_studio;LARD_train_BIRK_LFST;BIRK_01_500;BIRK;01;;;;2020-04-01 11:50:01;2.92;2.91;917.84;-2.29;2.82;0.8708725942130879;84.22264336555948;-1.458804092991938;300;716;1106;739;1106;666;1143;694;1144
images/BIRK_01_500_104.jpeg;2648;2448;earth_studio;LARD_train_BIRK_LFST;BIRK_01_500;BIRK;01;;;;2020-05-01 16:50:01;2.91;2.9;971.41;-2.42;2.98;-15.231861114182745;86.31272721567342;-1.166517138456862;300;1666;1260;1688;1261;1612;1299;1640;1300
images/BIRK_01_500_105.jpeg;2648;2448;earth_studio;LARD_train_BIRK_LFST;BIRK_01_500;BIRK;01;;;;2020-07-01 16:10:01;2.91;2.91;993.19;1.15;3.05;-6.050115838588107;85.55414130186203;0.7095062712757051;300;1375;1206;1397;1206;1395;1247;1423;1247
images/BIRK_01_500_106.jpeg;2648;2448;earth_studio;LARD_train_BIRK_LFST;BIRK_01_500;BIRK;01;;;;2020-05-01 13:36:01;2.91;2.9;979.75;-2.03;3.01;-5.730750224852565;79.21114422227745;-5.949183559549498;300;1177;819;1199;821;1129;855;1157;858
images/BIRK_01_500_107.jpeg;2648;2448;earth_studio;LARD_train_BIRK_LFST;BIRK_01_500;BIRK;01;;;;2020-08-01 12:52:01;2.9;2.9;1052.16;0.21;3.24;-0.7862879980172597;84.8985351198343;-1.1583114622013206;300;998;1174;1020;1175;999;1218;1027;1219
images/BIRK_01_500_108.jpeg;2648;2448;earth_studio;LARD_train_BIRK_LFST;BIRK_01_500;BIRK;01;;;;2020-08-01 16:33:01;2.9;2.89;1050.41;-0.84;3.24;-1.5103605962309583;85.32656085585923;3.79553044456906;300;977;1220;955;1222;966;1265;938;1267
images/BIRK_01_500_109.jpeg;2648;2448;earth_studio;LARD_train_BIRK_LFST;BIRK_01_500;BIRK;01;;;;2020-06-01 17:24:01;2.89;2.89;959.63;-0.02;2.96;-11.128201112143994;85.44611659589093;8.602535037274926;300;1593;1141;1571;1144;1601;1181;1573;1185
images/BIRK_01_500_110.jpeg;2648;2448;earth_studio;LARD_train_BIRK_LFST;BIRK_01_500;BIRK;01;;;;2020-06-01 12:01:01;2.87;2.87;1046.87;0.44;3.25;2.5189446016453996;86.44296926392722;-6.6980123660568855;300;823;1224;845;1227;824;1269;853;1273
images/BIRK_01_500_111.jpeg;2648;2448;earth_studio;LARD_train_BIRK_LFST;BIRK_01_500;BIRK;01;;;;2020-06-01 10:46:01;2.87;2.86;1032.83;1.78;3.22;-0.9014947073704658;87.33753557154792;-8.497404094397737;300;1118;1306;1140;1309;1145;1355;1173;1359
images/BIRK_01_500_112.jpeg;2648;2448;earth_studio;LARD_train_BIRK_LFST;BIRK_01_500;BIRK;01;;;;2020-05-01 15:07:01;2.86;2.85;958.21;1.54;3.0;1.85461008405119;81.23543199098614;-7.981276682911258;300;989;911;1011;914;1012;956;1041;960
images/BIRK_01_500_113.jpeg;2648;2448;earth_studio;LARD_train_BIRK_LFST;BIRK_01_500;BIRK;01;;;;2020-07-01 14:22:01;2.84;2.84;919.77;-0.03;2.88;1.86310794692392;89.22276972682644;6.087975721054242;300;853;1458;831;1461;860;1498;831;1501
images/BIRK_01_500_114.jpeg;2648;2448;earth_studio;LARD_train_BIRK_LFST;BIRK_01_500;BIRK;01;;;;2020-04-01 12:49:01;2.84;2.84;1033.2;1.08;3.24;2.246025747180262;86.11781533455536;-0.0330918894073359;300;878;1251;900;1251;897;1296;926;1296
images/BIRK_01_500_115.jpeg;2648;2448;earth_studio;LARD_train_BIRK_LFST;BIRK_01_500;BIRK;01;;;;2020-08-01 16:47:01;2.84;2.84;1010.77;-0.57;3.17;-2.462335716746085;86.14728648225125;-7.857182247721434;300;1050;1224;1072;1227;1029;1266;1057;1270
images/BIRK_01_500_116.jpeg;2648;2448;earth_studio;LARD_train_BIRK_LFST;BIRK_01_500;BIRK;01;;;;2020-04-01 11:07:01;2.84;2.83;899.1;2.5;2.83;-4.359377749571051;85.08601780497236;-2.6348441228854442;300;1382;1176;1404;1177;1429;1217;1457;1219
images/BIRK_01_500_117.jpeg;2648;2448;earth_studio;LARD_train_BIRK_LFST;BIRK_01_500;BIRK;01;;;;2020-05-01 17:08:01;2.81;2.81;959.52;1.04;3.04;5.5764320604213555;87.24130121926197;-6.633626743974579;300;680;1246;702;1248;694;1290;723;1293
images/BIRK_01_500_118.jpeg;2648;2448;earth_studio;LARD_train_BIRK_LFST;BIRK_01_500;BIRK;01;;;;2020-05-01 11:31:01;2.8;2.8;1018.44;1.46;3.24;1.821921993139525;87.76160512464796;-6.054381838846801;300;931;1317;953;1319;954;1365;982;1368
images/BIRK_01_500_119.jpeg;2648;2448;earth_studio;LARD_train_BIRK_LFST;BIRK_01_500;BIRK;01;;;;2020-06-01 11:12:01;2.8;2.79;993.37;2.41;3.16;-3.1353592872859455;89.04767244296842;6.759546895827144;300;1329;1408;1307;1411;1387;1446;1359;1449
images/BIRK_01_500_120.jpeg;2648;2448;earth_studio;LARD_train_BIRK_LFST;BIRK_01_500;BIRK;01;;;;2020-07-01 17:26:01;2.8;2.8;921.26;0.46;2.93;-3.022510442078633;83.0791053541573;1.3829121937809923;300;1162;1055;1140;1056;1176;1096;1147;1097
images/BIRK_01_500_121.jpeg;2648;2448;earth_studio;LARD_train_BIRK_LFST;BIRK_01_500;BIRK;01;;;;2020-08-01 17:00:01;2.78;2.78;882.13;-0.07;2.83;-6.688353404070192;87.16745968010254;-3.8675728728185494;300;1337;1300;1359;1301;1332;1339;1361;1341
images/BIRK_01_500_122.jpeg;2648;2448;earth_studio;LARD_train_BIRK_LFST;BIRK_01_500;BIRK;01;;;;2020-04-01 15:18:01;2.78;2.77;948.53;-0.02;3.04;-2.5398649106069198;84.74758928357524;-2.90742645115534;300;1094;1152;1116;1153;1089;1195;1118;1196
images/BIRK_01_500_123.jpeg;2648;2448;earth_studio;LARD_train_BIRK_LFST;BIRK_01_500;BIRK;01;;;;2020-07-01 17:41:01;2.77;2.77;951.61;-1.24;3.06;-7.169251369683522;85.01297371267532;1.7360720280558688;300;1286;1173;1263;1174;1264;1217;1235;1218
images/BIRK_01_500_124.jpeg;2648;2448;earth_studio;LARD_train_BIRK_LFST;BIRK_01_500;BIRK;01;;;;2020-08-01 12:19:01;2.77;2.77;977.05;0.83;3.14;-2.881491673835641;85.577266454827;2.562732770824809;300;1183;1214;1160;1215;1206;1258;1176;1259
images/BIRK_01_500_125.jpeg;2648;2448;earth_studio;LARD_train_BIRK_LFST;BIRK_01_500;BIRK;01;;;;2020-06-01 16:53:01;2.76;2.76;894.52;-0.99;2.88;0.6837881582945933;85.53590045167184;4.467238928311696;300;832;1229;810;1230;818;1271;788;1273
images/BIRK_01_500_126.jpeg;2648;2448;earth_studio;LARD_train_BIRK_LFST;BIRK_01_500;BIRK;01;;;;2020-08-01 10:00:01;2.75;2.74;963.82;-1.92;3.13;-9.105210016297564;85.8313287925674;-7.561875592884061;300;1345;1242;1367;1245;1295;1280;1324;1284
images/BIRK_01_500_127.jpeg;2648;2448;earth_studio;LARD_train_BIRK_LFST;BIRK_01_500;BIRK;01;;;;2020-06-01 14:43:01;2.73;2.73;1039.08;-1.25;3.39;-7.701567055527716;85.24382126965226;-0.5467715589737739;300;1300;1205;1322;1205;1269;1253;1298;1253
images/BIRK_01_500_128.jpeg;2648;2448;earth_studio;LARD_train_BIRK_LFST;BIRK_01_500;BIRK;01;;;;2020-08-01 10:41:01;2.73;2.72;954.58;-1.72;3.12;-10.997324949171771;84.2414212516259;7.960484213580898;300;1454;1098;1431;1101;1426;1147;1397;1151
images/BIRK_01_500_129.jpeg;2648;2448;earth_studio;LARD_train_BIRK_LFST;BIRK_01_500;BIRK;01;;;;2020-04-01 14:46:01;2.73;2.72;982.02;-1.23;3.21;-0.9096327102487529;86.22161034304234;-2.8748531464101914;300;900;1238;923;1239;868;1283;897;1284
images/BIRK_01_500_130.jpeg;2648;2448;earth_studio;LARD_train_BIRK_LFST;BIRK_01_500;BIRK;01;;;;2020-04-01 15:28:01;2.72;2.71;908.12;-0.49;2.97;-8.335259784703366;88.56800705554608;-7.597673014670763;300;1383;1403;1405;1407;1363;1444;1392;1448
images/BIRK_01_500_131.jpeg;2648;2448;earth_studio;LARD_train_BIRK_LFST;BIRK_01_500;BIRK;01;;;;2020-07-01 13:23:01;2.7;2.7;874.68;0.61;2.88;-1.9200831925994883;85.96830875301592;9.427570494577543;300;1100;1242;1077;1246;1124;1280;1094;1285
images/BIRK_01_500_132.jpeg;2648;2448;earth_studio;LARD_train_BIRK_LFST;BIRK_01_500;BIRK;01;;;;2020-04-01 15:52:01;2.68;2.67;829.5;-0.27;2.75;-6.328588553755556;84.08157212929245;-10.658087071271112;300;1329;1120;1351;1124;1312;1157;1341;1163
images/BIRK_01_500_133.jpeg;2648;2448;earth_studio;LARD_train_BIRK_LFST;BIRK_01_500;BIRK;01;;;;2020-07-01 15:41:01;2.66;2.66;905.55;0.64;3.02;-4.272676636422837;82.53536249550233;1.2408754158054167;300;1227;1024;1251;1024;1269;1068;1239;1069
images/BIRK_01_500_134.jpeg;2648;2448;earth_studio;LARD_train_BIRK_LFST;BIRK_01_500;BIRK;01;;;;2020-05-01 14:09:01;2.65;2.64;955.52;-0.8;3.2;5.835661556295845;84.22794329493412;-4.595721643913024;300;534;1081;559;1083;509;1128;541;1130
images/BIRK_01_500_135.jpeg;2648;2448;earth_studio;LARD_train_BIRK_LFST;BIRK_01_500;BIRK;01;;;;2020-06-01 17:53:01;2.65;2.64;868.29;0.5;2.91;-8.636411567505952;86.61696125257497;-5.098586502108127;300;1487;1286;1510;1288;1490;1329;1521;1332
images/BIRK_01_500_136.jpeg;2648;2448;earth_studio;LARD_train_BIRK_LFST;BIRK_01_500;BIRK;01;;;;2020-08-01 14:14:01;2.63;2.63;913.44;0.37;3.08;0.4933869480495412;89.19298426462095;4.854430208166748;300;963;1446;940;1448;979;1490;949;1493
images/BIRK_01_500_137.jpeg;2648;2448;earth_studio;LARD_train_BIRK_LFST;BIRK_01_500;BIRK;01;;;;2020-06-01 12:17:01;2.62;2.61;1071.15;2.86;3.64;-4.169515174052509;84.72929004715026;1.055199851293871;300;1413;1181;1389;1182;1451;1234;1482;1234
images/BIRK_01_500_138.jpeg;2648;2448;earth_studio;LARD_train_BIRK_LFST;BIRK_01_500;BIRK;01;;;;2020-06-01 16:36:01;2.62;2.61;913.5;1.04;3.1;-4.837575828104514;83.97249145239675;-8.154985423445947;300;1326;1126;1349;1129;1339;1174;1369;1179
images/BIRK_01_500_139.jpeg;2648;2448;earth_studio;LARD_train_BIRK_LFST;BIRK_01_500;BIRK;01;;;;2020-05-01 12:05:01;2.6;2.59;869.32;-1.24;2.97;-9.082166658020862;86.46983903440785;2.4441780874049464;300;1400;1248;1377;1249;1377;1293;1346;1295
images/BIRK_01_500_140.jpeg;2648;2448;earth_studio;LARD_train_BIRK_LFST;BIRK_01_500;BIRK;01;;;;2020-08-01 15:03:01;2.59;2.59;877.29;-0.73;3.0;0.7618876682874687;88.1249734144958;-4.8361185188967335;300;831;1323;854;1325;806;1366;838;1369
images/BIRK_01_500_141.jpeg;2648;2448;earth_studio;LARD_train_BIRK_LFST;BIRK_01_500;BIRK;01;;;;2020-04-01 16:16:01;2.59;2.58;902.3;-2.56;3.1;-2.831646829214547;85.15700793263252;3.5159844784904632;300;927;1202;903;1203;875;1252;843;1254
images/BIRK_01_500_142.jpeg;2648;2448;earth_studio;LARD_train_BIRK_LFST;BIRK_01_500;BIRK;01;;;;2020-07-01 10:32:01;2.58;2.58;793.18;-1.22;2.72;-6.22546017005427;87.74838055350592;-4.163053970230505;300;1212;1319;1236;1320;1177;1357;1209;1359
images/BIRK_01_500_143.jpeg;2648;2448;earth_studio;LARD_train_BIRK_LFST;BIRK_01_500;BIRK;01;;;;2020-08-01 12:52:01;2.57;2.57;870.23;0.21;3.0;1.488090911611585;88.09997648651903;-1.1258255602342868;300;859;1347;883;1348;859;1392;891;1393
images/BIRK_01_500_144.jpeg;2648;2448;earth_studio;LARD_train_BIRK_LFST;BIRK_01_500;BIRK;01;;;;2020-04-01 10:55:01;2.55;2.54;1002.62;-1.1;3.49;1.6243458112802358;86.09081115398865;1.6576643005991378;300;775;1272;750;1273;755;1326;722;1327
images/BIRK_01_500_145.jpeg;2648;2448;earth_studio;LARD_train_BIRK_LFST;BIRK_01_500;BIRK;01;;;;2020-08-01 15:06:01;2.5;2.49;878.59;-1.55;3.11;-5.074293965037014;85.11013225170973;-2.638603893066234;300;1125;1176;1149;1177;1082;1222;1114;1223
images/BIRK_01_500_146.jpeg;2648;2448;earth_studio;LARD_train_BIRK_LFST;BIRK_01_500;BIRK;01;;;;2020-04-01 11:08:01;2.5;2.49;840.54;-0.38;2.98;-6.4073269065516705;85.66849755967553;2.735237496192717;300;1303;1203;1279;1205;1300;1249;1268;1251
images/BIRK_01_500_147.jpeg;2648;2448;earth_studio;LARD_train_BIRK_LFST;BIRK_01_500;BIRK;01;;;;2020-05-01 13:11:01;2.5;2.49;821.39;-0.13;2.91;-5.443067833982628;88.50368215105752;-2.4504047331146777;300;1244;1373;1268;1374;1235;1418;1267;1419
images/BIRK_01_500_148.jpeg;2648;2448;earth_studio;LARD_train_BIRK_LFST;BIRK_01_500;BIRK;01;;;;2020-08-01 14:04:01;2.49;2.49;802.98;1.28;2.85;-8.009142119197485;84.11739596741084;9.641733685793495;300;1489;1061;1465;1065;1531;1099;1498;1104
images/BIRK_01_500_149.jpeg;2648;2448;earth_studio;LARD_train_BIRK_LFST;BIRK_01_500;BIRK;01;;;;2020-07-01 15:43:01;2.44;2.43;906.93;-0.1;3.29;2.950729418323693;88.41613334754715;8.359962554462818;300;786;1451;761;1455;795;1502;761;1507
images/BIRK_01_500_150.jpeg;2648;2448;earth_studio;LARD_train_BIRK_LFST;BIRK_01_500;BIRK;01;;;;2020-04-01 14:15:01;2.41;2.41;742.01;-0.48;2.72;-5.949285669135616;86.1486099692375;-3.7800166217598052;300;1256;1224;1281;1226;1237;1266;1270;1268
images/BIRK_01_500_151.jpeg;2648;2448;earth_studio;LARD_train_BIRK_LFST;BIRK_01_500;BIRK;01;;;;2020-05-01 17:28:01;2.41;2.4;754.93;1.75;2.77;-15.330801760110049;86.02826398757098;4.412956391799055;300;2001;1161;1975;1163;2055;1202;2019;1205
images/BIRK_01_500_152.jpeg;2648;2448;earth_studio;LARD_train_BIRK_LFST;BIRK_01_500;BIRK;01;;;;2020-05-01 10:28:01;2.4;2.4;751.79;-0.64;2.77;-1.258812410574674;86.22945586391968;2.7871124021439586;300;979;1241;954;1243;969;1286;936;1288
images/BIRK_01_500_153.jpeg;2648;2448;earth_studio;LARD_train_BIRK_LFST;BIRK_01_500;BIRK;01;;;;2020-05-01 10:40:01;2.38;2.37;840.56;-1.11;3.12;-2.4065991651290424;87.2703082496521;1.6043104173842961;300;991;1314;1017;1314;994;1364;960;1365
images/BIRK_01_500_154.jpeg;2648;2448;earth_studio;LARD_train_BIRK_LFST;BIRK_01_500;BIRK;01;;;;2020-04-01 16:42:01;2.37;2.37;795.32;0.88;2.96;-5.0083796733008805;82.97441020946732;2.294774949349682;300;1309;1041;1284;1042;1338;1087;1303;1089
images/BIRK_01_500_155.jpeg;2648;2448;earth_studio;LARD_train_BIRK_LFST;BIRK_01_500;BIRK;01;;;;2020-05-01 13:08:01;2.37;2.37;839.53;-1.0;3.12;-0.8055543159844927;85.17134653449355;0.28017393062789225;300;903;1185;929;1185;908;1235;874;1236
images/BIRK_01_500_156.jpeg;2648;2448;earth_studio;LARD_train_BIRK_LFST;BIRK_01_500;BIRK;01;;;;2020-08-01 13:04:01;2.37;2.37;772.59;-0.22;2.87;-10.968720225396288;86.76653595137718;2.251649716761512;300;1590;1252;1565;1253;1591;1299;1556;1300
images/BIRK_01_500_157.jpeg;2648;2448;earth_studio;LARD_train_BIRK_LFST;BIRK_01_500;BIRK;01;;;;2020-08-01 10:02:01;2.37;2.37;885.04;-0.2;3.29;-7.55467320004654;85.60997102930067;-0.39320059487953857;300;1366;1218;1392;1219;1356;1271;1391;1271
images/BIRK_01_500_158.jpeg;2648;2448;earth_studio;LARD_train_BIRK_LFST;BIRK_01_500;BIRK;01;;;;2020-07-01 14:23:01;2.37;2.36;861.68;1.45;3.21;-8.215758142095678;84.77147612753238;-5.285038076980467;300;1543;1193;1568;1195;1570;1248;1605;1251
images/BIRK_01_500_159.jpeg;2648;2448;earth_studio;LARD_train_BIRK_LFST;BIRK_01_500;BIRK;01;;;;2020-05-01 16:48:01;2.35;2.34;765.35;-1.32;2.88;-3.2895035023205;86.46402331981447;2.198378958603188;300;1050;1255;1025;1256;1023;1302;988;1304
images/BIRK_01_500_160.jpeg;2648;2448;earth_studio;LARD_train_BIRK_LFST;BIRK_01_500;BIRK;01;;;;2020-07-01 12:36:01;2.34;2.34;798.1;0.98;3.0;-7.473260134656781;88.86233306783996;-3.7369782605807185;300;1444;1411;1470;1413;1461;1461;1496;1464
images/BIRK_01_500_161.jpeg;2648;2448;earth_studio;LARD_train_BIRK_LFST;BIRK_01_500;BIRK;01;;;;2020-06-01 11:11:01;2.33;2.32;780.36;2.1;2.96;-5.832927495138414;86.20491634034202;0.8758329018289644;300;1435;1233;1460;1233;1520;1280;1485;1281
images/BIRK_01_500_162.jpeg;2648;2448;earth_studio;LARD_train_BIRK_LFST;BIRK_01_500;BIRK;01;;;;2020-04-01 10:21:01;2.3;2.3;723.88;0.18;2.77;0.36925073299947453;86.41908374067502;0.44515864518107184;300;948;1242;921;1243;922;1288;958;1288
images/BIRK_01_500_163.jpeg;2648;2448;earth_studio;LARD_train_BIRK_LFST;BIRK_01_500;BIRK;01;;;;2020-08-01 16:16:01;2.29;2.29;867.4;0.78;3.33;-9.570721883332734;86.27427751701701;2.9874074391203824;300;1582;1240;1556;1241;1610;1293;1574;1295
images/BIRK_01_500_164.jpeg;2648;2448;earth_studio;LARD_train_BIRK_LFST;BIRK_01_500;BIRK;01;;;;2020-06-01 13:49:01;2.25;2.24;777.21;1.84;3.04;0.5518901151260227;84.25583071096779;-5.881074648287612;300;1059;1105;1086;1108;1099;1161;1135;1164
images/BIRK_01_500_165.jpeg;2648;2448;earth_studio;LARD_train_BIRK_LFST;BIRK_01_500;BIRK;01;;;;2020-05-01 13:11:01;2.23;2.22;814.72;-2.8;3.22;-1.0157345659454653;88.32959386958649;-2.1590070249486573;300;775;1357;802;1358;691;1409;728;1410
images/BIRK_01_500_166.jpeg;2648;2448;earth_studio;LARD_train_BIRK_LFST;BIRK_01_500;BIRK;01;;;;2020-04-01 16:11:01;2.23;2.22;745.91;0.86;2.94;7.206494268128656;83.58724113621774;-2.5809015075463835;300;571;1051;599;1052;589;1103;627;1104
images/BIRK_01_500_167.jpeg;2648;2448;earth_studio;LARD_train_BIRK_LFST;BIRK_01_500;BIRK;01;;;;2020-06-01 11:42:01;2.21;2.21;717.28;-0.63;2.84;-8.18537081212474;83.87738815886779;5.2353221739142235;300;1374;1076;1348;1079;1366;1126;1330;1129
images/BIRK_01_500_168.jpeg;2648;2448;earth_studio;LARD_train_BIRK_LFST;BIRK_01_500;BIRK;01;;;;2020-06-01 15:08:01;2.21;2.21;652.46;0.36;2.59;-6.595729974283104;86.68404394485448;5.088136478824245;300;1370;1233;1343;1235;1388;1275;1352;1279
images/BIRK_01_500_169.jpeg;2648;2448;earth_studio;LARD_train_BIRK_LFST;BIRK_01_500;BIRK;01;;;;2020-06-01 16:18:01;2.2;2.2;764.3;1.72;3.05;-12.038536621073916;86.67958832783731;6.105083696253053;300;1799;1207;1772;1210;1858;1254;1821;1258
images/BIRK_01_500_170.jpeg;2648;2448;earth_studio;LARD_train_BIRK_LFST;BIRK_01_500;BIRK;01;;;;2020-04-01 17:26:01;2.19;2.19;811.95;-1.31;3.25;-6.329219912478091;86.81572156329499;-0.8412701266969834;300;1208;1284;1235;1285;1166;1339;1202;1339
images/BIRK_01_500_171.jpeg;2648;2448;earth_studio;LARD_train_BIRK_LFST;BIRK_01_500;BIRK;01;;;;2020-08-01 15:48:01;2.19;2.19;751.07;-0.15;3.01;-5.655784587679938;85.7609056533455;-0.49432242355220896;300;1256;1211;1283;1211;1247;1262;1284;1262
images/BIRK_01_500_172.jpeg;2648;2448;earth_studio;LARD_train_BIRK_LFST;BIRK_01_500;BIRK;01;;;;2020-07-01 12:36:01;2.18;2.18;707.98;0.43;2.85;-7.259130850052179;87.58810970755165;6.436991729686894;300;1419;1289;1392;1292;1442;1336;1405;1340
images/BIRK_01_500_173.jpeg;2648;2448;earth_studio;LARD_train_BIRK_LFST;BIRK_01_500;BIRK;01;;;;2020-06-01 13:25:01;2.17;2.17;740.05;-0.19;2.99;-3.3031273448946656;82.5358225982302;3.7459644111167774;300;1120;1023;1093;1025;1123;1075;1086;1077
images/BIRK_01_500_174.jpeg;2648;2448;earth_studio;LARD_train_BIRK_LFST;BIRK_01_500;BIRK;01;;;;2020-08-01 11:54:01;2.17;2.16;680.07;-0.43;2.75;-6.953374651895313;86.0957242746859;-11.249394723677852;300;1330;1237;1356;1242;1304;1280;1340;1288
images/BIRK_01_500_175.jpeg;2648;2448;earth_studio;LARD_train_BIRK_LFST;BIRK_01_500;BIRK;01;;;;2020-08-01 17:19:01;2.16;2.16;745.8;-0.58;3.03;-6.331714816905089;88.26785681734474;-3.344909465619261;300;1260;1362;1287;1364;1236;1413;1273;1415
images/BIRK_01_500_176.jpeg;2648;2448;earth_studio;LARD_train_BIRK_LFST;BIRK_01_500;BIRK;01;;;;2020-08-01 15:25:01;2.16;2.16;635.47;0.46;2.58;-4.219740294924282;86.98492479722503;2.8214569958464897;300;1241;1262;1214;1263;1261;1305;1224;1307
images/BIRK_01_500_177.jpeg;2648;2448;earth_studio;LARD_train_BIRK_LFST;BIRK_01_500;BIRK;01;;;;2020-08-01 12:41:01;2.16;2.15;647.45;0.73;2.63;-8.349446071844843;85.42101322821614;-6.958764925314661;300;1499;1205;1526;1208;1508;1252;1546;1257
images/BIRK_01_500_178.jpeg;2648;2448;earth_studio;LARD_train_BIRK_LFST;BIRK_01_500;BIRK;01;;;;2020-06-01 15:42:01;2.15;2.15;714.39;-1.03;2.91;-2.9816341671814;84.04639836289797;-1.446465498033547;300;1034;1099;1061;1099;998;1148;1036;1149
images/BIRK_01_500_179.jpeg;2648;2448;earth_studio;LARD_train_BIRK_LFST;BIRK_01_500;BIRK;01;;;;2020-04-01 15:49:01;2.13;2.13;694.86;1.63;2.86;4.851831153910938;83.38552228666764;-3.0216618556881425;300;778;1038;806;1040;819;1091;857;1092
images/BIRK_01_500_180.jpeg;2648;2448;earth_studio;LARD_train_BIRK_LFST;BIRK_01_500;BIRK;01;;;;2020-08-01 13:53:01;2.11;2.11;743.93;-0.37;3.08;-4.057209777546156;87.57732168971094;-0.9526890468432352;300;1144;1319;1171;1320;1127;1373;1165;1374
images/BIRK_01_500_181.jpeg;2648;2448;earth_studio;LARD_train_BIRK_LFST;BIRK_01_500;BIRK;01;;;;2020-07-01 15:15:01;2.1;2.09;798.32;-0.07;3.33;-6.254035475489338;82.54817384852376;2.2321306281869933;300;1313;1029;1285;1030;1319;1088;1280;1090
images/BIRK_01_500_182.jpeg;2648;2448;earth_studio;LARD_train_BIRK_LFST;BIRK_01_500;BIRK;01;;;;2020-05-01 11:52:01;2.09;2.09;730.07;0.17;3.06;0.8596763879712768;88.23023949169911;4.900542849378643;300;924;1384;896;1387;939;1437;900;1441
images/BIRK_01_500_183.jpeg;2648;2448;earth_studio;LARD_train_BIRK_LFST;BIRK_01_500;BIRK;01;;;;2020-05-01 15:32:01;2.06;2.06;693.52;1.07;2.94;-4.421673153283757;82.40071936931804;0.20049820929473589;300;1274;1005;1303;1005;1340;1057;1301;1058
images/BIRK_01_500_184.jpeg;2648;2448;earth_studio;LARD_train_BIRK_LFST;BIRK_01_500;BIRK;01;;;;2020-08-01 10:29:01;2.06;2.05;817.79;-0.63;3.47;-4.916224870839065;85.74000158384891;-3.3963364010429693;300;1180;1226;1208;1228;1152;1287;1191;1289
images/BIRK_01_500_185.jpeg;2648;2448;earth_studio;LARD_train_BIRK_LFST;BIRK_01_500;BIRK;01;;;;2020-05-01 12:36:01;2.06;2.04;734.88;2.82;3.13;5.09695713888912;87.00521934425346;2.500257577295273;300;870;1304;842;1305;964;1356;924;1358
images/BIRK_01_500_186.jpeg;2648;2448;earth_studio;LARD_train_BIRK_LFST;BIRK_01_500;BIRK;01;;;;2020-06-01 16:41:01;2.05;2.05;647.35;-0.66;2.75;-7.268609621821223;84.94652377030978;0.611010105592842;300;1309;1147;1338;1147;1284;1197;1324;1197
images/BIRK_01_500_187.jpeg;2648;2448;earth_studio;LARD_train_BIRK_LFST;BIRK_01_500;BIRK;01;;;;2020-07-01 17:09:01;2.05;2.04;653.17;0.47;2.79;-0.378267618180236;84.52003037898187;3.3161430276978985;300;1005;1137;977;1138;1028;1186;989;1188
images/BIRK_01_500_188.jpeg;2648;2448;earth_studio;LARD_train_BIRK_LFST;BIRK_01_500;BIRK;01;;;;2020-08-01 14:20:01;2.01;2.01;777.26;-1.12;3.37;7.448990358166215;87.18656288143889;7.9735479982696535;300;422;1425;392;1430;402;1493;360;1499
images/BIRK_01_500_189.jpeg;2648;2448;earth_studio;LARD_train_BIRK_LFST;BIRK_01_500;BIRK;01;;;;2020-05-01 12:20:01;2.01;2.0;793.75;0.9;3.45;-2.0549312385954286;87.24906596594995;-3.7973436594024297;300;1122;1310;1151;1312;1140;1374;1180;1377
images/BIRK_01_500_190.jpeg;2648;2448;earth_studio;LARD_train_BIRK_LFST;BIRK_01_500;BIRK;01;;;;2020-07-01 10:50:01;2.0;1.99;669.66;1.11;2.92;-5.9692240933592355;87.88324138477554;-1.4608790520432562;300;1370;1334;1399;1334;1397;1388;1438;1389
images/BIRK_01_500_191.jpeg;2648;2448;earth_studio;LARD_train_BIRK_LFST;BIRK_01_500;BIRK;01;;;;2020-05-01 13:32:01;2.0;1.99;772.56;-0.75;3.37;4.535268934945821;89.4013882649285;-4.352424330561207;300;589;1395;618;1397;554;1456;596;1459
images/BIRK_01_500_192.jpeg;2648;2448;earth_studio;LARD_train_BIRK_LFST;BIRK_01_500;BIRK;01;;;;2020-06-01 17:06:01;1.98;1.98;694.53;1.17;3.06;-5.71935039230999;87.11612959573593;0.3053047277736342;300;1360;1289;1389;1289;1391;1346;1432;1346
images/BIRK_01_500_193.jpeg;2648;2448;earth_studio;LARD_train_BIRK_LFST;BIRK_01_500;BIRK;01;;;;2020-04-01 12:46:01;1.98;1.97;684.15;-1.74;3.02;0.13425666982486106;88.51301192411812;2.5918358468276037;300;817;1390;788;1392;770;1449;729;1451
images/BIRK_01_500_194.jpeg;2648;2448;earth_studio;LARD_train_BIRK_LFST;BIRK_01_500;BIRK;01;;;;2020-08-01 11:37:01;1.95;1.95;587.12;-0.09;2.62;-9.106557563089222;85.96052761154593;6.874110753946304;300;1477;1170;1448;1173;1486;1218;1444;1223
images/BIRK_01_500_195.jpeg;2648;2448;earth_studio;LARD_train_BIRK_LFST;BIRK_01_500;BIRK;01;;;;2020-05-01 16:28:01;1.95;1.95;620.63;0.92;2.77;-9.237674271097191;88.71961414143321;6.07417461531067;300;1583;1334;1554;1337;1624;1383;1582;1387
images/BIRK_01_500_196.jpeg;2648;2448;earth_studio;LARD_train_BIRK_LFST;BIRK_01_500;BIRK;01;;;;2020-04-01 15:21:01;1.91;1.91;636.38;0.18;2.89;-2.1222130899559883;86.47953789785167;-5.225927236141591;300;1077;1230;1107;1233;1072;1285;1114;1289
images/BIRK_01_500_197.jpeg;2648;2448;earth_studio;LARD_train_BIRK_LFST;BIRK_01_500;BIRK;01;;;;2020-06-01 11:10:01;1.91;1.9;609.2;1.91;2.78;-11.025441650131567;84.69740657368476;-2.966605199803089;300;1746;1161;1777;1162;1801;1217;1844;1220
images/BIRK_01_500_198.jpeg;2648;2448;earth_studio;LARD_train_BIRK_LFST;BIRK_01_500;BIRK;01;;;;2020-06-01 16:45:01;1.91;1.9;663.85;-2.2;3.03;-6.415861119096162;83.56631922516752;0.0036620531606766007;300;1139;1076;1169;1076;1060;1134;1103;1134
images/BIRK_01_500_199.jpeg;2648;2448;earth_studio;LARD_train_BIRK_LFST;BIRK_01_500;BIRK;01;;;;2020-06-01 13:04:01;1.91;1.9;725.47;-0.1;3.3;-12.726813991986003;86.98703875360619;-4.721381456979285;300;1681;1331;1711;1334;1665;1394;1709;1398
images/BIRK_01_500_200.jpeg;2648;2448;earth_studio;LARD_train_BIRK_LFST;BIRK_01_500;BIRK;01;;;;2020-06-01 14:30:01;1.89;1.89;602.31;-0.31;2.76;-8.525267321401731;83.90633102893982;9.212590583342703;300;1401;1053;1371;1057;1405;1106;1362;1113
images/BIRK_01_500_201.jpeg;2648;2448;earth_studio;LARD_train_BIRK_LFST;BIRK_01_500;BIRK;01;;;;2020-05-01 16:12:01;1.89;1.88;672.2;1.07;3.09;-3.946369805892978;87.23465432281444;-12.724111011369194;300;1252;1303;1281;1310;1267;1367;1309;1377
images/BIRK_01_500_202.jpeg;2648;2448;earth_studio;LARD_train_BIRK_LFST;BIRK_01_500;BIRK;01;;;;2020-08-01 11:34:01;1.88;1.87;675.22;-2.0;3.12;-4.615549993747478;85.68412115490814;5.20803256207576;300;1067;1220;1037;1223;1013;1285;970;1289
images/BIRK_01_500_203.jpeg;2648;2448;earth_studio;LARD_train_BIRK_LFST;BIRK_01_500;BIRK;01;;;;2020-05-01 11:51:01;1.88;1.87;616.69;-1.26;2.85;-9.82842578743033;82.20193598545116;10.982618593908164;300;1377;950;1348;956;1352;1012;1310;1020
images/BIRK_01_500_204.jpeg;2648;2448;earth_studio;LARD_train_BIRK_LFST;BIRK_01_500;BIRK;01;;;;2020-07-01 13:49:01;1.87;1.87;640.16;0.9;2.97;-11.468105386557994;87.52476967757964;-0.994808613783396;300;1683;1318;1714;1318;1706;1376;1750;1377
images/BIRK_01_500_205.jpeg;2648;2448;earth_studio;LARD_train_BIRK_LFST;BIRK_01_500;BIRK;01;;;;2020-08-01 16:43:01;1.86;1.85;745.22;0.87;3.48;0.40409867918261977;86.11745005557326;5.055142827108481;300;997;1268;967;1271;1040;1332;996;1336
images/BIRK_01_500_206.jpeg;2648;2448;earth_studio;LARD_train_BIRK_LFST;BIRK_01_500;BIRK;01;;;;2020-05-01 12:36:01;1.85;1.85;701.22;-1.74;3.28;-5.0032255405328785;85.80621049405822;-2.023985110464244;300;1094;1216;1124;1217;1026;1277;1070;1279
images/BIRK_01_500_207.jpeg;2648;2448;earth_studio;LARD_train_BIRK_LFST;BIRK_01_500;BIRK;01;;;;2020-07-01 15:00:01;1.85;1.85;730.2;0.52;3.42;2.7668718257174323;86.26649328617;-2.5227244435309935;300;807;1237;838;1238;816;1304;860;1306
images/BIRK_01_500_208.jpeg;2648;2448;earth_studio;LARD_train_BIRK_LFST;BIRK_01_500;BIRK;01;;;;2020-05-01 14:30:01;1.83;1.83;597.93;-0.24;2.83;-6.436025559001948;87.23380841824822;-5.747846605634094;300;1296;1291;1326;1294;1275;1345;1319;1350
images/BIRK_01_500_209.jpeg;2648;2448;earth_studio;LARD_train_BIRK_LFST;BIRK_01_500;BIRK;01;;;;2020-08-01 11:18:01;1.82;1.81;686.26;-1.42;3.27;-8.981057981191219;86.17656766511948;-1.6656461276633872;300;1353;1245;1384;1246;1295;1308;1340;1309
images/BIRK_01_500_210.jpeg;2648;2448;earth_studio;LARD_train_BIRK_LFST;BIRK_01_500;BIRK;01;;;;2020-04-01 12:35:01;1.81;1.8;620.44;0.84;2.97;-2.897521951085145;85.69455889927322;-0.11437609566064838;300;1167;1199;1198;1199;1190;1258;1235;1258
images/BIRK_01_500_211.jpeg;2648;2448;earth_studio;LARD_train_BIRK_LFST;BIRK_01_500;BIRK;01;;;;2020-07-01 12:29:01;1.8;1.79;602.0;1.05;2.9;-5.614686474040387;87.31364890188708;-6.660799328897032;300;1347;1306;1378;1309;1370;1367;1415;1372
images/BIRK_01_500_212.jpeg;2648;2448;earth_studio;LARD_train_BIRK_LFST;BIRK_01_500;BIRK;01;;;;2020-07-01 11:07:01;1.79;1.79;595.01;-1.02;2.87;-8.855527683626152;82.67391103049134;4.524677985739591;300;1381;1000;1350;1003;1356;1060;1311;1064
images/BIRK_01_500_213.jpeg;2648;2448;earth_studio;LARD_train_BIRK_LFST;BIRK_01_500;BIRK;01;;;;2020-04-01 11:25:01;1.79;1.79;643.96;0.79;3.1;2.2098267801775817;86.00908673468324;-5.406308234540025;300;870;1190;901;1193;885;1254;931;1258
images/BIRK_01_500_214.jpeg;2648;2448;earth_studio;LARD_train_BIRK_LFST;BIRK_01_500;BIRK;01;;;;2020-08-01 14:00:01;1.79;1.79;641.29;0.46;3.09;-12.064418711385283;84.69552824949824;4.394635203591847;300;1701;1109;1669;1111;1728;1169;1682;1173
images/BIRK_01_500_215.jpeg;2648;2448;earth_studio;LARD_train_BIRK_LFST;BIRK_01_500;BIRK;01;;;;2020-05-01 15:11:01;1.76;1.76;621.19;0.86;3.04;-7.653377801442707;87.18184947975038;-4.3900659839249885;300;1453;1307;1484;1310;1472;1371;1518;1374
images/BIRK_01_500_216.jpeg;2648;2448;earth_studio;LARD_train_BIRK_LFST;BIRK_01_500;BIRK;01;;;;2020-06-01 10:38:01;1.75;1.75;562.63;0.49;2.77;-6.002322555688478;84.60617804795965;-0.540968913145349;300;1325;1125;1357;1125;1335;1182;1381;1182
images/BIRK_01_500_217.jpeg;2648;2448;earth_studio;LARD_train_BIRK_LFST;BIRK_01_500;BIRK;01;;;;2020-05-01 15:11:01;1.73;1.73;555.49;0.57;2.76;-6.1104138660906315;86.22474786858278;4.0451789857491125;300;1361;1210;1329;1212;1393;1264;1346;1268
images/BIRK_01_500_218.jpeg;2648;2448;earth_studio;LARD_train_BIRK_LFST;BIRK_01_500;BIRK;01;;;;2020-04-01 12:31:01;1.72;1.71;546.55;1.73;2.75;-1.104483522446174;82.35574454636796;-1.2482838473407274;300;1138;986;1170;986;1193;1044;1240;1045
images/BIRK_01_500_219.jpeg;2648;2448;earth_studio;LARD_train_BIRK_LFST;BIRK_01_500;BIRK;01;;;;2020-04-01 13:34:01;1.71;1.71;600.94;-0.24;3.02;-1.3800467189939107;90.1135161473335;-6.424796103490301;300;977;1435;1009;1439;953;1496;1001;1501
images/BIRK_01_500_220.jpeg;2648;2448;earth_studio;LARD_train_BIRK_LFST;BIRK_01_500;BIRK;01;;;;2020-05-01 12:45:01;1.7;1.7;575.86;-0.76;2.91;-1.5687068843596452;86.54779622361144;-0.8903218292130216;300;962;1241;994;1242;925;1301;973;1302
images/BIRK_01_500_221.jpeg;2648;2448;earth_studio;LARD_train_BIRK_LFST;BIRK_01_500;BIRK;01;;;;2020-07-01 11:13:01;1.7;1.69;639.04;0.96;3.24;-14.289201880456172;88.90234416786875;2.00643924509383;300;1895;1378;1862;1379;1943;1446;1894;1447
images/BIRK_01_500_222.jpeg;2648;2448;earth_studio;LARD_train_BIRK_LFST;BIRK_01_500;BIRK;01;;;;2020-04-01 13:03:01;1.69;1.68;630.16;0.44;3.21;-16.692536837638432;86.74906489291848;1.0007281516284539;300;1964;1260;1998;1260;1974;1329;2024;1329
images/BIRK_01_500_223.jpeg;2648;2448;earth_studio;LARD_train_BIRK_LFST;BIRK_01_500;BIRK;01;;;;2020-07-01 16:02:01;1.68;1.68;566.8;-0.2;2.9;-8.048141354875925;87.16997828612831;-5.363890469993574;300;1393;1297;1426;1300;1372;1356;1420;1361
images/BIRK_01_500_224.jpeg;2648;2448;earth_studio;LARD_train_BIRK_LFST;BIRK_01_500;BIRK;01;;;;2020-07-01 12:40:01;1.68;1.68;574.02;-0.98;2.94;-9.918101116315636;83.31126556271937;2.123394678794064;300;1463;1044;1430;1045;1435;1107;1387;1109
images/BIRK_01_500_225.jpeg;2648;2448;earth_studio;LARD_train_BIRK_LFST;BIRK_01_500;BIRK;01;;;;2020-05-01 15:30:01;1.65;1.65;456.0;-0.87;2.37;0.9779905447096668;87.6791979537816;0.9435195473960649;300;832;1294;798;1295;807;1346;757;1347
images/BIRK_01_500_226.jpeg;2648;2448;earth_studio;LARD_train_BIRK_LFST;BIRK_01_500;BIRK;01;;;;2020-04-01 13:04:01;1.65;1.65;571.34;0.85;2.97;-2.9550408086720013;86.59761989446321;3.5082014914241233;300;1200;1251;1167;1253;1245;1311;1196;1315
images/BIRK_01_500_227.jpeg;2648;2448;earth_studio;LARD_train_BIRK_LFST;BIRK_01_500;BIRK;01;;;;2020-08-01 17:37:01;1.65;1.65;576.34;-0.34;3.0;-3.0695303186223613;83.14352095589042;-3.4300787370090653;300;1099;1037;1132;1039;1074;1100;1123;1103
images/BIRK_01_500_228.jpeg;2648;2448;earth_studio;LARD_train_BIRK_LFST;BIRK_01_500;BIRK;01;;;;2020-05-01 14:31:01;1.65;1.65;584.03;0.16;3.04;-11.26204310754692;86.8242130689034;8.589071140116237;300;1631;1205;1598;1210;1655;1267;1606;1274
images/BIRK_01_500_229.jpeg;2648;2448;earth_studio;LARD_train_BIRK_LFST;BIRK_01_500;BIRK;01;;;;2020-06-01 16:26:01;1.64;1.64;515.56;1.35;2.69;2.832832689199927;84.9447819539881;1.347440239041163;300;895;1147;862;1148;958;1203;909;1205
images/BIRK_01_500_230.jpeg;2648;2448;earth_studio;LARD_train_BIRK_LFST;BIRK_01_500;BIRK;01;;;;2020-06-01 12:36:01;1.64;1.64;553.49;-0.86;2.89;-6.611353718966111;83.61968991071336;0.7300329502119963;300;1249;1068;1282;1068;1257;1130;1208;1131
images/BIRK_01_500_231.jpeg;2648;2448;earth_studio;LARD_train_BIRK_LFST;BIRK_01_500;BIRK;01;;;;2020-08-01 11:11:01;1.64;1.64;524.06;-1.34;2.74;-11.94244037044475;87.06908219038161;5.799386912483735;300;1556;1234;1523;1237;1518;1297;1468;1301
images/BIRK_01_500_232.jpeg;2648;2448;earth_studio;LARD_train_BIRK_LFST;BIRK_01_500;BIRK;01;;;;2020-06-01 15:45:01;1.63;1.63;585.99;-0.93;3.07;0.2695951966508767;85.80089297330463;11.200217246753756;300;854;1278;821;1285;839;1349;790;1359
images/BIRK_01_500_233.jpeg;2648;2448;earth_studio;LARD_train_BIRK_LFST;BIRK_01_500;BIRK;01;;;;2020-04-01 15:12:01;1.63;1.63;576.82;-0.95;3.03;-4.205111373365472;84.75806945966585;0.5685234126082542;300;1132;1143;1099;1144;1054;1209;1104;1209
images/BIRK_01_500_234.jpeg;2648;2448;earth_studio;LARD_train_BIRK_LFST;BIRK_01_500;BIRK;01;;;;2020-05-01 14:51:01;1.63;1.63;523.02;0.4;2.75;-5.462519155475224;83.47118561225757;3.441971016292306;300;1301;1048;1268;1050;1328;1106;1279;1109
images/BIRK_01_500_235.jpeg;2648;2448;earth_studio;LARD_train_BIRK_LFST;BIRK_01_500;BIRK;01;;;;2020-07-01 17:06:01;1.61;1.61;566.57;-0.45;3.02;-6.885118444051047;84.8645575097996;14.571942026788275;300;1286;1125;1254;1134;1294;1192;1245;1204
images/BIRK_01_500_236.jpeg;2648;2448;earth_studio;LARD_train_BIRK_LFST;BIRK_01_500;BIRK;01;;;;2020-04-01 15:54:01;1.58;1.58;597.69;0.14;3.23;-4.928976595789515;85.59766704212383;-3.3695554536090295;300;1239;1201;1272;1203;1231;1272;1282;1275
images/BIRK_01_500_237.jpeg;2648;2448;earth_studio;LARD_train_BIRK_LFST;BIRK_01_500;BIRK;01;;;;2020-05-01 15:26:01;1.58;1.57;553.62;0.67;3.0;-1.5057024232520408;87.55699408121086;3.7595880790900753;300;1104;1314;1070;1317;1145;1378;1093;1381
images/BIRK_01_500_238.jpeg;2648;2448;earth_studio;LARD_train_BIRK_LFST;BIRK_01_500;BIRK;01;;;;2020-08-01 16:03:01;1.57;1.57;571.22;0.62;3.1;-2.9850258240237864;87.78952021657098;-4.204096977712863;300;1155;1319;1189;1322;1167;1389;1218;1393
images/BIRK_01_500_239.jpeg;2648;2448;earth_studio;LARD_train_BIRK_LFST;BIRK_01_500;BIRK;01;;;;2020-06-01 15:27:01;1.57;1.57;604.69;0.28;3.28;-0.15426323806736075;85.08696405894268;3.7313501036642833;300;984;1187;949;1190;1009;1259;958;1262
images/BIRK_01_500_240.jpeg;2648;2448;earth_studio;LARD_train_BIRK_LFST;BIRK_01_500;BIRK;01;;;;2020-06-01 10:00:01;1.57;1.56;501.17;1.4;2.73;-5.74002251418405;89.16333723722576;2.538204293349377;300;1418;1381;1384;1383;1487;1439;1435;1442
images/BIRK_01_500_241.jpeg;2648;2448;earth_studio;LARD_train_BIRK_LFST;BIRK_01_500;BIRK;01;;;;2020-04-01 13:51:01;1.55;1.55;526.94;0.97;2.89;-5.67433003179509;85.8307196215772;-3.9753061338322357;300;1351;1207;1385;1210;1377;1274;1429;1278
images/BIRK_01_500_242.jpeg;2648;2448;earth_studio;LARD_train_BIRK_LFST;BIRK_01_500;BIRK;01;;;;2020-05-01 13:36:01;1.55;1.55;602.3;1.11;3.31;3.166189494851106;87.35864116577068;-5.263359779659958;300;830;1272;865;1275;861;1349;914;1354
images/BIRK_01_500_243.jpeg;2648;2448;earth_studio;LARD_train_BIRK_LFST;BIRK_01_500;BIRK;01;;;;2020-06-01 17:20:01;1.55;1.54;612.72;1.19;3.38;-3.5473503463295906;86.33398974583831;-1.9285466891082899;300;1236;1250;1271;1251;1275;1327;1327;1328
images/BIRK_01_500_244.jpeg;2648;2448;earth_studio;LARD_train_BIRK_LFST;BIRK_01_500;BIRK;01;;;;2020-08-01 10:24:01;1.51;1.51;503.86;0.38;2.84;-4.812425237360063;83.40473490330254;-0.3915724398914957;300;1245;1051;1280;1051;1252;1116;1305;1117
images/BIRK_01_500_245.jpeg;2648;2448;earth_studio;LARD_train_BIRK_LFST;BIRK_01_500;BIRK;01;;;;2020-08-01 17:55:01;1.5;1.5;457.37;-0.97;2.59;0.8767035201386317;85.43027170435175;-10.39660829313717;300;830;1087;865;1093;769;1136;823;1146
images/BIRK_01_500_246.jpeg;2648;2448;earth_studio;LARD_train_BIRK_LFST;BIRK_01_500;BIRK;01;;;;2020-07-01 16:04:01;1.5;1.5;560.18;1.35;3.18;-7.980511640074541;85.78248023532157;0.9039112357918524;300;1544;1202;1509;1203;1559;1275;1613;1275
